{
  "data" : [
    {
      "title" : "공과대학 7호관",
      "image_url" : "https://placehold.co/100.png",
      "description" : "📍1층 중앙 현관에 위치\n💰흑백40원, 컬러300원(장)",
      "tag" : "✔️카드 가능 ✔️인터넷 가능 ✔️보안 주의",
      "emoji" : "🖨️",
      "category_name" : "복사기",
      "coord" : {
        "lat" : 35.178359596721634,
        "lng" : 126.9093914649144
      }
    },
    {
      "title" : "경영대학 1호관",
      "image_url" : "https://placehold.co/100.png",
      "description" : "📍1층 무인 카페 옆\n💰흑백40원, 컬러300원(장)",
      "tag" : "✔️카드 가능 ✔️인터넷 가능 ✔️보안 주의",
      "emoji" : "🖨️",
      "category_name" : "복사기",
      "coord" : {
        "lat" : 35.17684587573409,
        "lng" : 126.90425819050216
      }
    },
    {
      "title" : "정보마루 1층",
      "image_url" : "https://placehold.co/100.png",
      "description" : "📍1층 그룹스터디룸 앞\n💰흑백40원, 컬러300원(장)",
      "tag" : "✔️카드 가능 ✔️인터넷 가능 ✔️보안 주의",
      "emoji" : "🖨️",
      "category_name" : "복사기",
      "coord" : {
        "lat" : 35.1765674167118,
        "lng" : 126.90548255850064
      }
    },
    {
      "title" : "백도 2층",
      "image_url" : "https://placehold.co/100.png",
      "description" : "📍2층 매점 맞은편\n💰흑백40원, 컬러300원(장)",
      "tag" : "✔️카드 가능 ✔️인터넷 가능 ✔️보안 주의",
      "emoji" : "🖨️",
      "category_name" : "복사기",
      "coord" : {
        "lat" : 35.17801055616681,
        "lng" : 126.90673239657053
      }
    },
    {
      "title" : "예술대학 1호관",
      "image_url" : "https://placehold.co/100.png",
      "description" : "📍1층 현관 앞\n💰흑백40원, 컬러300원(장)",
      "tag" : "✔️카드 가능 ✔️인터넷 가능 ✔️보안 주의",
      "emoji" : "🖨️",
      "category_name" : "복사기",
      "coord" : {
        "lat" : 35.17951055060238,
        "lng" : 126.90574537656046
      }
    },
    {
      "title" : "사범대학 교육융합관",
      "image_url" : "https://placehold.co/100.png",
      "description" : "📍위치(층 수) 정보를 알려주세요.\n💰흑백40원, 컬러300원(장)",
      "tag" : "✔️카드 가능 ✔️인터넷 가능 ✔️보안 주의",
      "emoji" : "🖨️",
      "category_name" : "복사기",
      "coord" : {
        "lat" : 35.1786295886297,
        "lng" : 126.90589185502641
      }
    },
    {
      "title" : "사범대학 과학교육관",
      "image_url" : "https://placehold.co/100.png",
      "description" : "📍위치(층 수) 정보를 알려주세요.\n💰흑백40원, 컬러300원(장)",
      "tag" : "✔️카드 가능 ✔️인터넷 가능 ✔️보안 주의",
      "emoji" : "🖨️",
      "category_name" : "복사기",
      "coord" : {
        "lat" : 35.1778775661186,
        "lng" : 126.90965273033282
      }
    },
    {
      "title" : "공과대학 6호관",
      "image_url" : "https://placehold.co/100.png",
      "description" : "📍1층\n💰흑백40원, 컬러300원(장)",
      "tag" : "✔️카드 가능 ✔️인터넷 가능 ✔️보안 주의",
      "emoji" : "🖨️",
      "category_name" : "복사기",
      "coord" : {
        "lat" : 35.17976746833861,
        "lng" : 126.90872845509261
      }
    },
    {
      "title" : "생활관 9호관",
      "image_url" : "https://placehold.co/100.png",
      "description" : "📍2층 세미나실 옆\n💰흑백40원, 컬러300원(장)",
      "tag" : "✔️전남대스토어 신분증 QR로 출입 ✔️카드 가능 ✔️인터넷 가능 ✔️보안 주의",
      "emoji" : "🖨️",
      "category_name" : "복사기",
      "coord" : {
        "lat" : 35.18107874648183,
        "lng" : 126.90553497360447
      }
    }
  ]
}